[
{
  "name": "Chick-fil-A",
  "street": "1002 Keller Pkwy, Keller",
  "city": "Keller",
  "state": "TX",
  "zip": "76248",
  "url": "http://www.chick-fil-a.com/Food/Menu",
  "pos": {"lat":32.9330228, "lng":-97.2297855}
},
{
  "name": "Whataburger",
  "street": "1520 Keller Pkwy, Keller",
  "city": "Keller",
  "state": "TX",
  "zip": "76248",
  "url": " ",
  "pos": {"lat":32.9328466, "lng":-97.2180547}
},
{
  "name": "DeVivo Bros Eatery",
  "street": "750 S Main St. Keller",
  "city": "Keller",
  "state": "TX",
  "zip": "76248",
  "url": "",
  "pos": {"lat":32.9234976, "lng":-97.2546877}
},
{
  "name": "Maria Cuca's",
  "street": "800 S Main St. Keller",
  "city": "Keller",
  "state": "TX",
  "zip": "76248",
  "url": "",
  "pos": {"lat":32.9195796, "lng":-97.2550142}
},
{
  "name": "Spring Creek Barbecue",
  "street": "660 S Main St, Keller",
  "city": "Keller",
  "state": "TX",
  "zip": "76248",
  "url": "https://springcreekbarbeque.com/",
  "pos": {"lat":32.9272293, "lng":-97.2548016}
},
{
  "name": "Lupe's Tex Mex Grill",
  "street": "2122 Rufe Snow Dr, Keller",
  "city": "Keller",
  "state": "TX",
  "zip": "76248",
  "url": "http://lupestxmx.com/",
  "pos": {"lat":32.8942004, "lng":-97.2397703}
},
{
  "name": "Seven Mile Cafe",
  "street": "110 W Vine St (Hwy 377), Keller",
  "city": "Keller",
  "state": "TX",
  "zip": "76248",
  "url": "",
  "pos": {"lat":32.9325566, "lng":-97.2540713}
},
{
  "name": "Main Street Cafe",
  "street": "900 S Main St, Keller",
  "city": "Keller",
  "state": "TX",
  "zip": "76248",
  "url": "www.mainstreetcafekeller.com",
  "pos": {"lat":32.9180625, "lng":-97.2554039}
},
{
  "name": "Sea Siam Thai Restaurant",
  "street": "940 Keller Pkwy Ste 230 (at Rufe Snow Dr) Keller",
  "city": "Keller",
  "state": "TX",
  "zip": "76248",
  "url": "",
  "pos": {"lat":32.9327216, "lng":-97.2313991}
},
{
  "name": "BottleCap Alley Icehouse Grill",
  "street": "148 S Main St, Keller",
  "city": "Keller",
  "state": "TX",
  "zip": "76248",
  "url": "http://www.bottlecapalley.com/",
  "pos": {"lat":32.9328453, "lng":-97.2539039}
},
{
  "name": "SONIC Drive In",
  "street": "2009 S Main St (at N Tarrant Pkwy), Keller",
  "city": "Keller",
  "state": "TX",
  "zip": "76248",
  "url": "https://locations.sonicdrivein.com/tx/keller/2009-s-main-street.html",
  "pos": {"lat":32.8964844, "lng":-97.2577773}
},
{
  "name": "Raising Cane's Chicken Fingers",
  "street": "961 Keller Pkwy, Keller",
  "city": "Keller",
  "state": "TX",
  "zip": "76248",
  "url": "https://www.raisingcanes.com/",
  "pos": {"lat":32.9347552, "lng":-97.2318853}
},
{
  "name": "Blue Cherry",
  "street": "Timberland Blvd., Keller",
  "city": "Keller",
  "state": "TX",
  "zip": "76244",
  "url": "",
  "pos": {"lat":32.9527541, "lng":-97.2832175}
},
{
  "name": "Funky Baja's Cantina",
  "street": "721 Keller Pkwy Ste 100, Keller",
  "city": "Keller",
  "state": "TX",
  "zip": "76248",
  "url": "www.funkybaja.com",
  "pos": {"lat":32.9527541, "lng":-97.2832175}
},
{
  "name": "Pie Five Pizza Co.",
  "street": "1431 Keller Pkwy, Keller",
  "city": "Keller",
  "state": "TX",
  "zip": "76248",
  "url": "www.piefivepizza.com",
  "pos": {"lat":32.9348489, "lng":-97.2206168}
},
{
  "name": "Brew'n Blues Coffee House",
  "street": "841 N Tarrant Pkwy (at Rufe Snow Dr), Keller",
  "city": "Keller",
  "state": "TX",
  "zip": "76248",
  "url": "http://brewnblues.com/",
  "pos": {"lat":32.8996423, "lng":-97.2374978}
},
{
  "name": "Firehouse Subs",
  "street": "Keller Pkwy Ste 200, Keller",
  "city": "Keller",
  "state": "TX",
  "zip": "76248",
  "url": "https://www.firehousesubs.com/locations/tx/keller-marketplace/",
  "pos": {"lat":32.9348649, "lng":-97.2213007}
},
{
  "name": "Jersey Mike's Subs",
  "street": "1431 Keller Pkwy, Keller",
  "city": "Keller",
  "state": "TX",
  "zip": "76248",
  "url": "https://www.jerseymikes.com/15072",
  "pos": {"lat":32.9348764, "lng":-97.2203091}
},
{
  "name": "Zaxby's Chicken Fingers and Buffalo Wings",
  "street": "701 Keller Pkwy, Keller",
  "city": "Keller",
  "state": "TX",
  "zip": "76248",
  "url": "https://www.zaxbys.com/",
  "pos": {"lat":32.934757, "lng":-97.238894}
}
]